City_ID,City,Country,Date,Lat,Lng,Max Temp,Humidity,Cloudiness,Wind Speed,Current Description,Rain inches (last 3 hrs),Snow inches (last 3 hrs)
0,Port Alfred,ZA,2020-01-05 21:59:38,-33.59,26.89,69.01,90,50,1.01,scattered clouds,0.0,0.0
1,Bluff,AU,2020-01-05 22:00:17,-23.58,149.07,74.39,77,0,10.36,clear sky,0.0,0.0
2,Mataura,NZ,2020-01-05 21:57:03,-46.19,168.86,52.0,72,87,25.01,light rain,1.56,0.0
3,Mar Del Plata,AR,2020-01-05 21:58:09,-46.43,-67.52,69.57,33,100,6.33,overcast clouds,0.0,0.0
4,Ushuaia,AR,2020-01-05 21:58:03,-54.81,-68.31,50.0,66,75,25.28,broken clouds,0.0,0.0
5,Saint-Philippe,CA,2020-01-05 22:00:34,45.36,-73.48,23.0,73,90,8.05,overcast clouds,0.0,0.0
6,Kruisfontein,ZA,2020-01-05 22:00:57,-34.0,24.73,65.17,83,100,5.23,light rain,0.19,0.0
7,Rikitea,PF,2020-01-05 22:00:18,-23.12,-134.97,76.03,78,67,15.41,broken clouds,0.0,0.0
8,Nuevo Casas Grandes,MX,2020-01-05 22:04:37,30.42,-107.91,63.88,22,0,4.79,clear sky,0.0,0.0
9,Vera Cruz,BR,2020-01-05 22:04:37,-12.96,-38.61,80.6,83,75,12.75,broken clouds,0.0,0.0
10,Punta Arenas,CL,2020-01-05 21:57:02,-53.16,-70.91,55.4,54,75,27.51,broken clouds,0.0,0.0
11,Nanortalik,GL,2020-01-05 21:58:20,60.14,-45.24,26.4,70,0,11.77,clear sky,0.0,0.0
12,Samana,EC,2020-01-05 22:04:38,0.12,-76.97,89.6,58,75,2.24,broken clouds,0.0,0.0
13,Saint George,GR,2020-01-05 21:59:48,39.45,22.34,42.01,75,90,13.87,overcast clouds,0.0,0.0
14,Puerto Ayora,EC,2020-01-05 22:00:35,-0.74,-90.35,84.2,62,40,18.34,scattered clouds,0.0,0.0
15,Okahandja,NA,2020-01-05 22:04:39,-21.98,16.91,66.2,77,99,5.82,light rain,0.69,0.0
16,Provideniya,RU,2020-01-05 22:01:34,64.42,-173.23,-10.43,82,100,9.08,overcast clouds,0.0,0.0
17,Ilheus,BR,2020-01-05 22:04:39,-14.79,-39.05,82.4,88,20,9.17,few clouds,0.0,0.0
18,Chokurdakh,RU,2020-01-05 22:00:19,70.62,147.9,-21.48,99,84,3.83,broken clouds,0.0,0.0
19,Zheleznodorozhnyy,RU,2020-01-05 22:02:34,55.75,38.0,33.8,64,75,6.71,broken clouds,0.0,0.0
20,Tuktoyaktuk,CA,2020-01-05 22:00:49,69.44,-133.03,-22.0,74,90,9.17,overcast clouds,0.0,0.0
21,Poum,MK,2020-01-05 22:01:03,41.28,20.71,23.95,69,2,7.63,clear sky,0.0,0.0
22,Puerto Leguizamo,CO,2020-01-05 22:04:40,-0.19,-74.78,91.67,45,53,4.43,broken clouds,0.0,0.0
23,Lethem,GY,2020-01-05 22:04:41,3.38,-59.8,96.06,28,0,8.77,clear sky,0.0,0.0
24,Barrow,AR,2020-01-05 21:57:04,-38.31,-60.23,73.53,76,100,3.74,moderate rain,7.25,0.0
25,Touros,BR,2020-01-05 22:01:16,-5.2,-35.46,82.4,69,40,14.99,scattered clouds,0.0,0.0
26,Gamba,CN,2020-01-05 22:00:49,28.28,88.52,3.9,19,11,3.31,few clouds,0.0,0.0
27,Avarua,CK,2020-01-05 21:57:07,-21.21,-159.78,82.4,88,100,8.05,light rain,0.75,0.0
28,Busselton,AU,2020-01-05 21:57:07,-33.64,115.35,59.0,44,0,9.35,clear sky,0.0,0.0
29,Manadhoo,MV,2020-01-05 22:04:42,5.77,73.38,82.06,80,1,11.68,clear sky,0.0,0.0
30,Butaritari,KI,2020-01-05 22:00:35,3.07,172.79,85.28,76,100,15.26,moderate rain,3.81,0.0
31,Narsaq,GL,2020-01-05 22:01:40,60.91,-46.05,17.6,57,20,12.75,few clouds,0.0,0.0
32,Putina,PE,2020-01-05 22:04:43,-14.91,-69.87,51.8,71,90,12.75,overcast clouds,0.0,0.0
33,Moche,PE,2020-01-05 22:04:43,-8.17,-79.01,73.4,78,20,10.29,few clouds,0.0,0.0
34,Prince Rupert,CA,2020-01-05 22:04:43,54.32,-130.32,39.2,64,20,10.29,few clouds,0.0,0.0
35,Hithadhoo,MV,2020-01-05 21:57:26,-0.6,73.08,81.48,78,100,11.25,overcast clouds,0.0,0.0
36,Aksu,KZ,2020-01-05 22:02:18,52.04,76.93,10.4,92,90,4.47,fog,0.0,0.0
37,Esperance,AU,2020-01-05 21:59:40,-33.86,121.89,64.4,55,33,18.34,scattered clouds,0.0,0.0
38,Qaanaaq,GL,2020-01-05 21:57:35,77.48,-69.36,-25.65,47,0,4.12,clear sky,0.0,0.0
39,Saskylakh,RU,2020-01-05 21:57:03,71.97,114.09,-19.21,94,0,13.09,clear sky,0.0,0.0
40,Nongpoh,IN,2020-01-05 22:04:45,25.9,91.88,59.0,93,40,4.88,mist,0.0,0.0
41,Hermanus,ZA,2020-01-05 22:00:17,-34.42,19.24,64.0,90,100,11.03,overcast clouds,0.0,0.0
42,Manicore,BR,2020-01-05 22:04:45,-5.81,-61.3,87.08,67,96,1.34,light rain,0.25,0.0
43,Umba,RU,2020-01-05 22:04:46,66.69,34.34,24.1,72,33,20.8,scattered clouds,0.0,0.0
44,Pevek,RU,2020-01-05 21:58:31,69.7,170.27,-6.29,82,0,5.59,clear sky,0.0,0.0
45,Same,TL,2020-01-05 22:04:46,-9.0,125.65,69.42,84,100,5.26,overcast clouds,0.0,0.0
46,Kimbe,PG,2020-01-05 22:04:46,-5.56,150.15,77.5,88,100,2.04,overcast clouds,0.0,0.0
47,Salta,AR,2020-01-05 21:57:11,-24.79,-65.41,89.6,42,20,6.93,few clouds,0.0,0.0
48,Atar,MR,2020-01-05 22:01:25,20.52,-13.05,56.75,22,0,8.41,clear sky,0.0,0.0
49,Seoul,KR,2020-01-05 22:02:59,37.57,126.98,35.6,63,90,2.24,overcast clouds,0.0,0.0
50,Necochea,AR,2020-01-05 22:03:24,-38.55,-58.74,64.0,90,92,8.01,overcast clouds,0.0,0.0
51,Avera,US,2020-01-05 22:01:36,33.19,-82.53,57.2,37,1,8.05,clear sky,0.0,0.0
52,Blagoveshchensk,RU,2020-01-05 22:04:48,50.29,127.53,-13.0,75,100,2.19,overcast clouds,0.0,0.0
53,Australind,AU,2020-01-05 22:04:48,-33.28,115.72,60.01,44,0,9.35,clear sky,0.0,0.0
54,Albany,US,2020-01-05 21:57:05,42.65,-73.75,33.01,68,90,11.41,overcast clouds,0.0,0.0
55,Carnarvon,ZA,2020-01-05 21:58:44,-30.97,22.13,66.76,29,24,10.56,few clouds,0.0,0.0
56,Norman Wells,CA,2020-01-05 21:58:06,65.28,-126.83,-25.6,74,40,2.24,scattered clouds,0.0,0.0
57,Bulaevo,KZ,2020-01-05 22:04:49,54.91,70.44,13.03,94,90,11.79,overcast clouds,0.0,0.0
58,Vostok,RU,2020-01-05 22:04:03,46.45,135.83,-5.44,98,90,3.24,overcast clouds,0.0,0.0
59,Cidreira,BR,2020-01-05 21:57:20,-30.17,-50.22,74.61,82,0,19.3,clear sky,0.0,0.0
60,Saint-Augustin,CA,2020-01-05 22:01:56,45.63,-73.98,21.2,61,75,5.82,broken clouds,0.0,0.0
61,Gat,SN,2020-01-05 21:58:39,14.69,-16.54,75.2,56,0,12.75,dust,0.0,0.0
62,Portland,US,2020-01-05 22:04:50,43.66,-70.25,30.99,58,1,16.11,clear sky,0.0,0.0
63,Chicama,PE,2020-01-05 22:00:44,-7.84,-79.15,73.4,78,20,10.29,few clouds,0.0,0.0
64,Yangambi,CD,2020-01-05 22:04:50,0.77,24.47,70.2,92,100,2.77,overcast clouds,0.0,0.0
65,Fatsa,TR,2020-01-05 22:04:51,41.03,37.5,41.0,86,20,3.36,few clouds,0.0,0.0
66,Bambous Virieux,MU,2020-01-05 22:00:29,-20.34,57.76,73.4,100,75,9.17,heavy intensity rain,0.0,0.0
67,Cap-Aux-Meules,CA,2020-01-05 22:01:20,47.38,-61.86,28.4,86,90,33.33,light snow,0.0,0.0
68,Muisne,EC,2020-01-05 22:00:17,0.61,-80.02,78.8,88,90,6.93,shower rain,0.0,0.0
69,Zilair,RU,2020-01-05 22:04:52,52.23,57.44,15.13,96,89,3.62,light snow,0.0,0.13
70,Touba,SN,2020-01-05 22:04:52,14.86,-15.88,75.2,27,0,10.29,clear sky,0.0,0.0
71,Katsuura,JP,2020-01-05 21:57:25,33.93,134.5,35.6,80,40,8.05,scattered clouds,0.0,0.0
72,Fort Saint James,CA,2020-01-05 22:01:33,54.43,-124.25,27.48,77,8,10.56,clear sky,0.0,0.0
73,Fort Nelson,CA,2020-01-05 22:04:52,58.81,-122.69,-9.4,69,90,12.75,light snow,0.0,0.0
74,Monroe,US,2020-01-05 22:02:26,41.91,-83.4,37.99,86,90,9.17,light rain,0.0,0.0
75,Tomohon,ID,2020-01-05 22:04:53,1.33,124.84,75.2,94,20,1.83,few clouds,0.0,0.0
76,Guerrero Negro,MX,2020-01-05 21:57:19,27.97,-114.04,72.99,23,0,7.16,clear sky,0.0,0.0
77,Saint-Pierre,FR,2020-01-05 21:58:30,48.95,4.24,33.8,100,0,4.7,clear sky,0.0,0.0
78,San Cristobal,HN,2020-01-05 21:58:34,14.68,-86.92,69.13,77,96,10.8,overcast clouds,0.0,0.0
79,Krasnaya Gorbatka,RU,2020-01-05 22:04:54,55.87,41.76,22.86,94,0,5.41,clear sky,0.0,0.0
80,Saint-Francois,FR,2020-01-05 22:01:08,46.42,3.91,35.01,92,0,3.36,clear sky,0.0,0.0
81,Bredasdorp,ZA,2020-01-05 21:57:05,-34.53,20.04,66.2,68,100,8.05,overcast clouds,0.0,0.0
82,Kaitangata,NZ,2020-01-05 21:59:37,-46.28,169.85,53.01,64,80,23.0,light rain,1.19,0.0
83,Cape Town,ZA,2020-01-05 22:00:24,-33.93,18.42,66.99,82,75,3.36,broken clouds,0.0,0.0
84,Babadag,RO,2020-01-05 22:04:55,44.89,28.72,32.0,79,96,12.75,overcast clouds,0.0,0.0
85,Codrington,AU,2020-01-05 21:57:55,-28.95,153.24,78.01,73,75,4.7,broken clouds,0.0,0.0
86,Itaituba,BR,2020-01-05 21:57:36,-4.26,-55.99,84.2,79,20,9.17,shower rain,0.0,0.0
87,Georgetown,GY,2020-01-05 21:58:51,6.8,-58.16,84.2,61,0,6.93,clear sky,0.0,0.0
88,Ballina,IE,2020-01-05 22:04:56,54.11,-9.15,52.0,88,100,14.0,overcast clouds,0.0,0.0
89,Severo-Kurilsk,RU,2020-01-05 21:57:12,50.68,156.12,19.35,93,100,14.85,snow,0.0,7.06
90,Faanui,PF,2020-01-05 22:00:40,-16.48,-151.75,81.57,75,37,9.42,scattered clouds,0.0,0.0
91,Dikson,RU,2020-01-05 22:00:21,73.51,80.55,17.56,91,95,20.65,light snow,0.0,0.19
92,Nuuk,GL,2020-01-05 22:03:08,64.17,-51.74,14.0,85,90,17.22,light snow,0.0,0.0
93,Yellowknife,CA,2020-01-05 22:00:16,62.45,-114.38,-13.0,75,20,6.93,few clouds,0.0,0.0
94,San Vicente,EC,2020-01-05 22:04:00,-0.59,-80.41,78.8,78,75,5.82,broken clouds,0.0,0.0
95,Jacareacanga,BR,2020-01-05 22:03:04,-6.22,-57.76,76.55,96,100,2.93,moderate rain,3.75,0.0
96,Mitsamiouli,KM,2020-01-05 22:01:08,-11.38,43.28,82.4,74,75,4.7,broken clouds,0.0,0.0
97,Athabasca,CA,2020-01-05 22:00:11,54.72,-113.29,23.94,76,88,14.25,overcast clouds,0.0,0.0
98,Jamestown,AU,2020-01-05 21:57:08,-33.21,138.6,56.25,87,89,5.93,light rain,2.19,0.0
99,Port Hardy,CA,2020-01-05 21:58:01,50.7,-127.42,37.4,93,40,8.05,scattered clouds,0.0,0.0
100,Chuy,UY,2020-01-05 22:01:09,-33.69,-53.46,75.31,63,0,13.76,clear sky,0.0,0.0
101,Naze,NG,2020-01-05 22:00:16,5.43,7.07,75.2,73,82,4.21,dust,0.0,0.0
102,Atuona,PF,2020-01-05 21:58:15,-9.8,-139.03,80.56,67,0,4.74,clear sky,0.0,0.0
103,Buala,SB,2020-01-05 22:05:00,-8.15,159.59,82.31,81,69,8.99,broken clouds,0.0,0.0
104,Soe,EE,2020-01-05 22:05:00,57.91,26.05,27.0,79,100,6.93,overcast clouds,0.0,0.0
105,Port Elizabeth,US,2020-01-05 21:57:06,39.31,-74.98,41.0,51,90,8.05,overcast clouds,0.0,0.0
106,Zhuhai,CN,2020-01-05 22:05:01,40.71,112.04,26.6,68,40,13.42,scattered clouds,0.0,0.0
107,Hasaki,JP,2020-01-05 21:57:05,35.73,140.83,33.8,69,20,5.82,few clouds,0.0,0.0
108,Tacuati,PY,2020-01-05 22:05:02,-23.46,-56.74,89.78,42,86,2.68,overcast clouds,0.0,0.0
109,Victoria,BN,2020-01-05 21:57:09,5.28,115.24,80.6,83,75,4.7,broken clouds,0.0,0.0
110,Port Lincoln,AU,2020-01-05 21:58:34,-34.72,135.86,61.3,76,78,10.56,broken clouds,0.0,0.0
111,Magadan,RU,2020-01-05 22:05:02,59.56,150.8,14.97,65,94,8.97,overcast clouds,0.0,0.0
112,Fallon,US,2020-01-05 22:05:03,46.84,-105.12,39.0,51,1,9.17,clear sky,0.0,0.0
113,New Norfolk,AU,2020-01-05 21:57:11,-42.78,147.06,64.0,58,20,3.36,few clouds,0.0,0.0
114,Horta,BR,2020-01-05 22:05:04,-10.93,-37.66,82.4,74,20,11.41,few clouds,0.0,0.0
115,Oistins,BB,2020-01-05 21:56:29,13.07,-59.53,77.0,78,75,11.41,broken clouds,0.0,0.0
116,Padang,ID,2020-01-05 21:58:47,-0.92,100.36,68.95,85,13,6.17,few clouds,0.0,0.0
117,Bossangoa,CF,2020-01-05 22:05:04,6.5,17.45,72.57,28,0,3.78,clear sky,0.0,0.0
118,Hobart,AU,2020-01-05 21:58:00,-42.88,147.33,64.0,58,20,3.36,few clouds,0.0,0.0
119,Champerico,MX,2020-01-05 22:04:02,16.38,-93.6,77.0,50,20,17.22,few clouds,0.0,0.0
120,Sitges,ES,2020-01-05 22:05:05,41.24,1.82,52.0,81,0,11.41,clear sky,0.0,0.0
121,Bad Sackingen,DE,2020-01-05 22:05:05,47.55,7.95,35.01,92,20,2.24,few clouds,0.0,0.0
122,Lagunas,PE,2020-01-05 22:05:06,-5.23,-75.68,92.07,49,87,4.14,overcast clouds,0.0,0.0
123,Palencia,ES,2020-01-05 22:05:06,42.01,-4.53,33.01,100,90,2.24,light rain,0.0,0.0
124,Chernyshevskiy,RU,2020-01-05 22:05:06,63.01,112.47,9.79,93,100,9.42,light snow,0.0,0.31
125,Pombia,GR,2020-01-05 22:05:06,35.01,24.87,51.8,37,75,8.05,light rain,0.0,0.0
126,Margarita,GR,2020-01-05 22:05:07,40.88,22.03,42.01,71,100,14.99,light rain,0.0,0.0
127,Saldanha,PT,2020-01-05 21:58:15,41.42,-6.55,38.03,75,7,0.6,clear sky,0.0,0.0
128,Pyshchug,RU,2020-01-05 22:05:07,58.89,45.71,23.07,97,88,5.48,overcast clouds,0.0,0.0
129,Santa Barbara,US,2020-01-05 22:04:37,34.42,-119.7,68.0,63,75,9.17,broken clouds,0.0,0.0
130,Koygorodok,RU,2020-01-05 22:05:08,60.44,51.01,19.63,96,97,5.35,light snow,0.0,0.13
131,Katangli,RU,2020-01-05 22:05:08,51.71,143.23,19.83,94,100,5.7,light snow,0.0,0.38
132,Pag,HR,2020-01-05 22:05:08,44.45,15.06,37.4,29,0,4.7,clear sky,0.0,0.0
133,Ketchikan,US,2020-01-05 21:58:28,55.34,-131.65,35.6,83,20,10.29,few clouds,0.0,0.0
134,Cascais,PT,2020-01-05 22:05:09,38.7,-9.42,53.01,81,0,2.24,clear sky,0.0,0.0
135,Namibe,AO,2020-01-05 22:05:09,-15.19,12.15,73.89,90,79,11.88,broken clouds,0.0,0.0
136,Denpasar,ID,2020-01-05 22:00:43,-8.65,115.22,80.6,94,75,13.87,broken clouds,0.0,0.0
137,Abha,SA,2020-01-05 22:05:10,18.22,42.5,59.0,87,20,6.93,few clouds,0.0,0.0
138,Acapulco,MX,2020-01-05 22:00:59,16.86,-99.88,84.2,74,40,8.05,scattered clouds,0.0,0.0
139,Vaini,IN,2020-01-05 22:00:16,15.34,74.49,66.11,79,0,6.89,clear sky,0.0,0.0
140,Sao Filipe,CV,2020-01-05 21:58:17,14.9,-24.5,70.7,67,32,16.08,scattered clouds,0.0,0.0
141,Saint-Georges,CA,2020-01-05 21:58:47,46.12,-70.67,17.01,37,100,10.0,light snow,0.0,0.13
142,Bartlesville,US,2020-01-05 22:05:11,36.75,-95.98,61.0,24,1,10.29,clear sky,0.0,0.0
143,Nikolskoye,RU,2020-01-05 22:00:44,59.7,30.79,24.01,79,81,3.47,broken clouds,0.0,0.0
144,Cabo San Lucas,MX,2020-01-05 22:01:22,22.89,-109.91,81.0,57,75,6.93,broken clouds,0.0,0.0
145,Corpus Christi,US,2020-01-05 22:01:04,27.8,-97.4,77.0,49,1,13.87,clear sky,0.0,0.0
146,Mount Isa,AU,2020-01-05 22:00:25,-20.73,139.49,87.8,45,27,8.05,light rain,0.25,0.0
147,Bethel,US,2020-01-05 22:05:12,60.79,-161.76,-16.6,74,1,6.93,clear sky,0.0,0.0
148,Bathsheba,BB,2020-01-05 21:58:30,13.22,-59.52,77.0,78,75,11.41,broken clouds,0.0,0.0
149,Naron,ES,2020-01-05 22:05:13,43.52,-8.15,43.0,100,0,4.7,fog,0.0,0.0
150,Lodja,CD,2020-01-05 22:05:13,-3.52,23.6,68.59,97,100,0.47,overcast clouds,0.0,0.0
151,Tasiilaq,GL,2020-01-05 22:00:16,65.61,-37.64,24.06,93,100,30.44,snow,0.0,3.94
152,Thompson,CA,2020-01-05 21:57:09,55.74,-97.86,6.8,84,90,9.17,light snow,0.0,0.0
153,Leningradskiy,RU,2020-01-05 21:58:02,69.38,178.42,-11.0,51,0,1.83,clear sky,0.0,0.0
154,Isangel,VU,2020-01-05 21:58:06,-19.55,169.27,84.2,62,20,17.22,few clouds,0.0,0.0
155,Presidencia Roque Saenz Pena,AR,2020-01-05 22:05:14,-26.79,-60.44,100.11,14,0,6.64,clear sky,0.0,0.0
156,Madanapalle,IN,2020-01-05 22:05:15,13.56,78.5,65.03,98,72,2.26,broken clouds,0.0,0.0
157,Tazovskiy,RU,2020-01-05 22:01:03,67.47,78.7,14.52,91,17,16.73,few clouds,0.0,0.0
158,East London,ZA,2020-01-05 21:57:10,-33.02,27.91,73.44,75,90,4.63,overcast clouds,0.0,0.0
159,Sokolo,ML,2020-01-05 22:05:15,14.74,-6.12,65.77,15,0,10.16,clear sky,0.0,0.0
160,Hamilton,CA,2020-01-05 22:01:13,43.26,-79.87,36.0,80,75,5.82,broken clouds,0.0,0.0
161,Jiuquan,CN,2020-01-05 22:05:16,39.73,98.49,15.33,62,26,2.66,scattered clouds,0.0,0.0
162,Usinsk,RU,2020-01-05 22:05:16,66.0,57.56,8.56,95,11,11.59,few clouds,0.0,0.0
163,Kavieng,PG,2020-01-05 21:57:40,-2.57,150.8,84.27,73,56,7.54,light rain,2.0,0.0
164,Kapaa,US,2020-01-05 21:57:44,22.08,-159.32,80.6,74,40,16.11,scattered clouds,0.0,0.0
165,Brandon,US,2020-01-05 22:05:08,43.59,-96.57,37.4,81,1,17.22,clear sky,0.0,0.0
166,Ischia,IT,2020-01-05 22:05:17,46.03,11.25,43.0,43,0,3.36,clear sky,0.0,0.0
167,Clyde River,CA,2020-01-05 21:58:06,70.47,-68.59,-38.2,58,1,5.82,clear sky,0.0,0.0
168,Tucuman,PE,2020-01-05 22:05:18,-17.17,-70.89,63.12,50,96,12.37,light rain,0.94,0.0
169,Kavaratti,IN,2020-01-05 21:58:42,10.57,72.64,79.97,63,0,3.85,clear sky,0.0,0.0
170,Tefe,BR,2020-01-05 22:05:18,-3.35,-64.71,91.4,59,20,6.93,few clouds,0.0,0.0
171,Tiznit,MA,2020-01-05 22:05:18,29.7,-9.73,52.34,73,0,1.23,clear sky,0.0,0.0
172,Yerbogachen,RU,2020-01-05 22:00:41,61.28,108.01,5.65,92,100,10.6,overcast clouds,0.0,0.0
173,Upernavik,GL,2020-01-05 22:00:19,72.79,-56.15,-29.87,88,100,11.86,overcast clouds,0.0,0.0
174,Marawi,PH,2020-01-05 21:58:20,8.0,124.29,71.01,89,33,8.01,scattered clouds,0.0,0.0
175,Kampong Thum,KH,2020-01-05 22:05:19,12.71,104.89,67.06,79,0,5.97,clear sky,0.0,0.0
176,Tilichiki,RU,2020-01-05 21:58:43,60.47,166.1,-11.27,63,0,6.96,clear sky,0.0,0.0
177,Kungurtug,RU,2020-01-05 22:05:20,50.6,97.53,-5.15,83,0,2.39,clear sky,0.0,0.0
178,Paamiut,GL,2020-01-05 22:00:57,61.99,-49.67,19.17,93,100,11.92,light snow,0.0,1.31
179,Inhambane,MZ,2020-01-05 22:05:20,-23.87,35.38,79.34,80,0,14.29,clear sky,0.0,0.0
180,Noumea,NC,2020-01-05 22:00:13,-22.28,166.46,84.2,48,0,4.7,light rain,0.13,0.0
181,Waingapu,ID,2020-01-05 22:01:22,-9.65,120.26,84.0,76,90,25.01,light rain,0.13,0.0
182,Cheremukhovo,RU,2020-01-05 22:05:21,56.23,46.23,25.79,91,88,5.99,overcast clouds,0.0,0.0
183,Coihaique,CL,2020-01-05 21:58:56,-45.58,-72.07,57.2,62,75,8.05,broken clouds,0.0,0.0
184,Margate,AU,2020-01-05 21:57:42,-43.03,147.26,64.0,58,20,3.36,few clouds,0.0,0.0
185,Aklavik,CA,2020-01-05 22:01:10,68.22,-135.01,-16.6,68,90,6.93,light snow,0.0,0.0
186,Vylkove,UA,2020-01-05 22:05:22,45.4,29.58,37.53,64,100,11.95,overcast clouds,0.0,0.0
187,Novikovo,RU,2020-01-05 22:05:22,51.15,37.89,28.44,91,100,8.03,overcast clouds,0.0,0.0
188,Fortuna,US,2020-01-05 21:58:25,40.6,-124.16,55.4,71,40,6.93,scattered clouds,0.0,0.0
189,Namatanai,PG,2020-01-05 21:58:56,-3.66,152.44,82.56,76,88,5.79,overcast clouds,0.0,0.0
190,Luau,CD,2020-01-05 22:05:22,-10.7,22.23,68.49,87,100,2.37,overcast clouds,0.0,0.0
191,Hilo,US,2020-01-05 21:58:09,19.71,-155.08,80.6,57,40,8.05,scattered clouds,0.0,0.0
192,Ode,NG,2020-01-05 22:05:23,8.45,4.32,77.0,33,98,5.82,haze,0.0,0.0
193,Severodvinsk,RU,2020-01-05 22:05:23,64.56,39.82,19.4,85,75,8.95,broken clouds,0.0,0.0
194,Tecoanapa,MX,2020-01-05 22:01:59,16.99,-99.26,84.2,74,40,8.05,scattered clouds,0.0,0.0
195,Lac-Megantic,CA,2020-01-05 22:05:24,45.58,-70.88,16.0,78,90,12.75,light snow,0.0,0.0
196,Charters Towers,AU,2020-01-05 22:01:40,-20.07,146.27,74.03,84,2,8.39,clear sky,0.0,0.0
197,Itarema,BR,2020-01-05 21:58:13,-2.92,-39.92,79.92,76,67,8.81,broken clouds,0.0,0.0
198,Mao,DO,2020-01-05 22:02:25,19.55,-71.08,86.0,55,20,11.41,few clouds,0.0,0.0
199,Diapaga,BF,2020-01-05 22:05:25,12.07,1.79,70.9,27,20,7.47,few clouds,0.0,0.0
200,Teahupoo,PF,2020-01-05 22:05:25,-17.83,-149.27,84.2,74,40,5.82,scattered clouds,0.0,0.0
201,Tiksi,RU,2020-01-05 21:58:26,71.64,128.87,-14.8,86,0,11.92,clear sky,0.0,0.0
202,Batavia,US,2020-01-05 22:00:44,43.0,-78.19,35.01,59,75,9.17,broken clouds,0.0,0.0
203,Oakdale,US,2020-01-05 22:05:26,37.77,-120.85,60.8,44,1,18.34,clear sky,0.0,0.0
204,Muravlenko,RU,2020-01-05 22:05:26,63.79,74.5,24.13,93,100,14.85,overcast clouds,0.0,0.0
205,Ambon,FR,2020-01-05 22:05:27,47.55,-2.56,44.01,93,0,8.05,clear sky,0.0,0.0
206,Suchitlan,MX,2020-01-05 22:05:27,19.37,-103.72,78.8,27,5,3.67,clear sky,0.0,0.0
207,Huarmey,PE,2020-01-05 21:56:56,-10.07,-78.15,78.49,57,82,7.34,broken clouds,0.0,0.0
208,Uribia,CO,2020-01-05 22:05:28,11.71,-72.27,82.13,64,71,11.39,light rain,0.13,0.0
209,Vangaindrano,MG,2020-01-05 22:05:28,-23.35,47.6,71.33,96,15,3.53,light rain,1.25,0.0
210,Arraial Do Cabo,BR,2020-01-05 21:58:46,-22.97,-42.02,78.8,83,75,5.82,broken clouds,0.0,0.0
211,La Ronge,CA,2020-01-05 22:03:15,55.1,-105.3,5.0,65,20,8.05,few clouds,0.0,0.0
212,Ponta Do Sol,BR,2020-01-05 21:57:40,-20.63,-46.0,75.29,84,20,4.41,light rain,1.94,0.0
213,Olinda,AU,2020-01-05 22:03:37,-37.84,145.39,57.0,93,90,1.12,light rain,0.0,0.0
214,Souillac,FR,2020-01-05 21:58:06,45.6,-0.6,39.99,80,0,6.93,clear sky,0.0,0.0
215,Provost,CA,2020-01-05 22:05:30,52.35,-110.26,23.77,78,0,8.08,clear sky,0.0,0.0
216,Hirado,JP,2020-01-05 22:05:30,33.32,129.49,53.6,75,75,6.93,broken clouds,0.0,0.0
217,Matamoros,US,2020-01-05 22:05:30,25.87,-97.51,77.0,40,1,13.87,clear sky,0.0,0.0
218,Kuusamo,FI,2020-01-05 22:04:00,65.96,29.19,19.4,92,90,10.29,overcast clouds,0.0,0.0
219,Pineville,US,2020-01-05 22:03:49,31.32,-92.43,71.01,49,1,8.05,clear sky,0.0,0.0
220,Lata,IN,2020-01-05 22:00:47,30.78,78.62,13.3,71,100,5.93,overcast clouds,0.0,0.0
221,Vanimo,PG,2020-01-05 22:03:47,-2.67,141.3,81.59,84,100,23.76,moderate rain,5.63,0.0
222,Huntington,US,2020-01-05 22:05:01,40.87,-73.43,41.0,51,75,16.11,broken clouds,0.0,0.0
223,Kamaishi,JP,2020-01-05 22:01:07,39.28,141.86,26.8,73,0,3.62,clear sky,0.0,0.0
224,Bam,IR,2020-01-05 22:05:32,29.11,58.36,56.07,79,93,17.38,moderate rain,3.44,0.0
225,Luzhou,CN,2020-01-05 22:05:32,28.89,105.45,51.85,72,100,2.53,overcast clouds,0.0,0.0
226,Salalah,OM,2020-01-05 22:00:34,17.01,54.1,75.2,78,75,3.36,broken clouds,0.0,0.0
227,Viedma,AR,2020-01-05 21:58:32,-40.81,-62.99,67.3,62,76,21.85,broken clouds,0.0,0.0
228,Lavrentiya,RU,2020-01-05 21:57:15,65.58,-170.99,-12.98,87,19,8.32,few clouds,0.0,0.0
229,Whyalla,AU,2020-01-05 22:05:34,-33.04,137.58,62.04,80,93,7.9,overcast clouds,0.0,0.0
230,Tarakan,ID,2020-01-05 22:05:34,3.3,117.63,75.15,90,100,5.03,light rain,0.5,0.0
231,Sao Joao Da Barra,BR,2020-01-05 21:57:08,-21.64,-41.05,82.4,78,75,4.7,broken clouds,0.0,0.0
232,Batagay-Alyta,RU,2020-01-05 22:05:34,67.8,130.41,-22.11,79,17,4.05,few clouds,0.0,0.0
233,Eydhafushi,MV,2020-01-05 22:05:34,5.1,73.07,81.73,79,46,12.01,scattered clouds,0.0,0.0
234,Kendari,ID,2020-01-05 22:05:35,-3.99,122.52,75.06,93,100,0.87,light rain,1.56,0.0
235,Straseni,MD,2020-01-05 22:05:35,47.14,28.61,35.6,93,90,10.29,overcast clouds,0.0,0.0
236,Le Port,FR,2020-01-05 22:05:35,42.87,1.37,39.0,88,0,1.97,clear sky,0.0,0.0
237,Ust-Nera,RU,2020-01-05 22:05:35,64.57,143.24,-19.82,100,92,1.66,overcast clouds,0.0,0.0
238,Lebu,ET,2020-01-05 21:57:07,8.96,38.73,57.2,71,75,6.93,broken clouds,0.0,0.0
239,Aleksandrov Gay,RU,2020-01-05 22:05:36,50.14,48.57,29.86,93,100,6.29,overcast clouds,0.0,0.0
240,Teya,MX,2020-01-05 21:57:37,21.05,-89.07,78.8,50,75,4.7,broken clouds,0.0,0.0
241,Kibala,TD,2020-01-05 22:05:36,9.11,18.35,69.8,56,0,3.31,clear sky,0.0,0.0
242,Jizan,SA,2020-01-05 22:05:37,16.89,42.56,80.6,69,20,10.29,few clouds,0.0,0.0
243,Cherskiy,RU,2020-01-05 21:57:56,68.75,161.3,-7.71,61,5,5.35,clear sky,0.0,0.0
244,Tovste,UA,2020-01-05 22:05:37,48.84,25.73,33.01,83,96,13.0,light snow,0.0,0.13
245,Port Macquarie,AU,2020-01-05 22:01:32,-31.43,152.91,75.99,73,90,8.05,overcast clouds,0.0,0.0
246,Wamba,CD,2020-01-05 22:05:38,2.14,27.99,66.61,98,51,2.89,light rain,0.81,0.0
247,Coquimbo,CL,2020-01-05 22:02:07,-29.95,-71.34,66.2,68,90,10.29,overcast clouds,0.0,0.0
248,Yumen,CN,2020-01-05 22:05:38,40.29,97.04,14.43,66,90,4.72,overcast clouds,0.0,0.0
249,Liuhe,CN,2020-01-05 22:05:38,42.28,125.73,17.49,73,100,3.24,overcast clouds,0.0,0.0
250,Morros,BR,2020-01-05 22:05:38,-2.87,-44.04,77.0,94,75,12.75,moderate rain,0.0,0.0
251,Axim,GH,2020-01-05 22:05:39,4.87,-2.24,75.34,52,0,2.44,clear sky,0.0,0.0
252,Rock Sound,BS,2020-01-05 22:05:39,24.9,-76.2,68.9,73,23,20.87,few clouds,0.0,0.0
253,Lentekhi,GE,2020-01-05 22:05:39,42.79,42.72,11.95,82,24,2.64,few clouds,0.0,0.0
254,Ilulissat,GL,2020-01-05 22:01:07,69.22,-51.1,6.8,71,75,11.41,broken clouds,0.0,0.0
255,Grand Gaube,MU,2020-01-05 22:05:40,-20.01,57.66,73.4,100,75,9.17,heavy intensity rain,0.0,0.0
256,Rorvik,NO,2020-01-05 22:05:40,64.86,11.24,44.6,87,75,17.22,broken clouds,0.0,0.0
257,Celestun,MX,2020-01-05 22:05:40,20.87,-90.4,72.45,66,7,15.3,clear sky,0.0,0.0
258,Bayir,TR,2020-01-05 22:05:41,37.27,28.22,50.0,87,75,5.82,light intensity shower rain,0.0,0.0
259,Palaia Fokaia,GR,2020-01-05 22:05:41,37.72,23.95,45.0,81,75,23.04,light rain,0.0,0.0
260,Tura,RU,2020-01-05 22:05:41,64.27,100.22,12.61,87,100,8.97,light snow,0.0,0.25
261,Yeppoon,AU,2020-01-05 22:05:41,-23.13,150.74,80.6,65,2,6.93,clear sky,0.0,0.0
262,Ampanihy,MG,2020-01-05 22:05:42,-24.69,44.75,73.85,79,0,9.01,clear sky,0.0,0.0
263,Taoudenni,ML,2020-01-05 21:57:29,22.68,-3.98,58.93,17,30,10.54,scattered clouds,0.0,0.0
264,Hami,CN,2020-01-05 22:00:51,42.84,93.51,18.34,48,73,4.38,broken clouds,0.0,0.0
265,Angul,IN,2020-01-05 22:05:42,20.84,85.1,59.22,73,0,2.86,clear sky,0.0,0.0
266,Fukue,JP,2020-01-05 22:01:46,35.03,136.69,41.0,56,20,18.34,few clouds,0.0,0.0
267,Casma,PE,2020-01-05 22:05:43,-9.47,-78.3,71.04,90,6,11.68,clear sky,0.0,0.0
268,Laguna,BZ,2020-01-05 21:57:36,16.17,-88.94,73.4,73,75,6.93,broken clouds,0.0,0.0
269,Longyearbyen,NO,2020-01-05 22:01:02,78.22,15.63,-0.4,70,20,6.93,few clouds,0.0,0.0
270,Khatanga,RU,2020-01-05 22:00:30,71.98,102.47,-8.95,88,100,6.8,overcast clouds,0.0,0.0
271,Apache Junction,US,2020-01-05 22:01:11,33.41,-111.55,71.01,34,1,8.05,clear sky,0.0,0.0
272,Houma,CN,2020-01-05 22:05:44,35.63,111.36,32.97,95,100,1.21,overcast clouds,0.0,0.0
273,Grootfontein,NA,2020-01-05 22:02:14,-19.56,18.1,65.53,91,100,8.23,moderate rain,4.25,0.0
274,Maraa,BR,2020-01-05 22:05:45,-1.83,-65.37,88.11,64,88,0.76,light rain,0.13,0.0
275,Santa Luzia,BR,2020-01-05 22:05:45,-19.77,-43.85,78.8,78,20,3.36,few clouds,0.0,0.0
276,Cairns,AU,2020-01-05 22:05:45,-16.92,145.77,81.0,83,40,6.93,light intensity shower rain,0.0,0.0
277,Batyrevo,RU,2020-01-05 22:05:46,55.07,47.6,19.74,95,0,5.64,clear sky,0.0,0.0
278,San Patricio,PY,2020-01-05 22:02:21,-26.98,-56.83,93.25,32,24,2.8,few clouds,0.0,0.0
279,Keti Bandar,PK,2020-01-05 22:05:46,24.14,67.45,65.93,68,8,5.77,clear sky,0.0,0.0
280,Torbay,CA,2020-01-05 21:57:06,47.66,-52.73,30.99,100,90,26.4,snow,0.0,0.0
281,Severomorsk,RU,2020-01-05 22:05:46,69.07,33.42,14.0,72,76,4.47,broken clouds,0.0,0.0
282,Resistencia,AR,2020-01-05 22:05:47,-27.45,-58.99,95.0,38,20,6.93,few clouds,0.0,0.0
283,Kerman,IR,2020-01-05 22:05:47,30.29,57.06,39.2,69,40,4.7,scattered clouds,0.0,0.0
284,The Valley,AI,2020-01-05 22:03:58,18.22,-63.06,82.4,69,40,9.17,scattered clouds,0.0,0.0
285,Castro,CL,2020-01-05 22:00:55,-42.48,-73.76,57.2,62,75,14.99,broken clouds,0.0,0.0
286,Pontianak,ID,2020-01-05 22:05:47,-0.02,109.34,73.0,98,57,0.85,broken clouds,0.0,0.0
287,Talnakh,RU,2020-01-05 22:00:50,69.49,88.39,23.0,92,75,29.08,shower snow,0.0,0.0
288,Leeton,AU,2020-01-05 22:05:48,-34.55,146.4,71.01,52,100,16.11,overcast clouds,0.0,0.0
289,Sur,OM,2020-01-05 22:02:08,22.57,59.53,69.24,74,33,13.53,scattered clouds,0.0,0.0
290,Kualakapuas,ID,2020-01-05 22:00:55,-3.01,114.39,74.84,96,83,1.88,broken clouds,0.0,0.0
291,Pedasi,PA,2020-01-05 22:05:48,7.53,-80.03,82.58,72,26,16.26,scattered clouds,0.0,0.0
292,Carndonagh,IE,2020-01-05 22:05:49,55.25,-7.27,51.8,81,20,14.99,few clouds,0.0,0.0
293,Alofi,NU,2020-01-05 21:57:07,-19.06,-169.92,84.2,74,1,13.87,light rain,0.19,0.0
294,Chernoyerkovskaya,RU,2020-01-05 22:05:50,45.43,37.76,44.6,87,75,4.47,broken clouds,0.0,0.0
295,Namtsy,RU,2020-01-05 22:05:50,62.72,129.66,-22.0,74,100,2.95,light snow,0.0,0.0
296,Wismar,DE,2020-01-05 22:05:50,53.89,11.46,43.0,100,75,8.05,mist,0.0,0.0
297,Bubaque,GW,2020-01-05 22:05:50,11.28,-15.83,77.5,57,5,18.01,clear sky,0.0,0.0
298,Cam Ranh,VN,2020-01-05 22:05:50,11.92,109.15,75.2,78,40,5.82,scattered clouds,0.0,0.0
299,Road Town,VG,2020-01-05 21:56:42,18.42,-64.62,80.6,83,75,3.36,shower rain,0.0,0.0
300,Salinopolis,BR,2020-01-05 22:05:51,-0.61,-47.36,81.3,78,100,13.69,light rain,1.56,0.0
301,Baculin,PH,2020-01-05 22:03:47,7.45,126.58,70.41,93,57,5.46,light rain,0.69,0.0
302,Beian,NO,2020-01-05 22:05:51,63.66,9.57,44.6,87,40,17.22,scattered clouds,0.0,0.0
303,Wajima,JP,2020-01-05 22:05:51,37.4,136.9,43.3,54,96,9.1,overcast clouds,0.0,0.0
304,Punata,BO,2020-01-05 22:05:52,-17.55,-65.84,75.2,44,75,6.93,broken clouds,0.0,0.0
305,Waipawa,NZ,2020-01-05 21:58:07,-39.94,176.59,64.99,55,0,25.01,clear sky,0.0,0.0
306,Paita,PE,2020-01-05 22:03:23,-5.09,-81.11,62.6,100,0,13.87,clear sky,0.0,0.0
307,Fukuma,JP,2020-01-05 22:05:52,33.77,130.47,46.99,70,75,1.12,broken clouds,0.0,0.0
308,Alta Floresta,BR,2020-01-05 21:58:29,-9.87,-56.08,82.4,74,20,5.82,few clouds,0.0,0.0
309,Umiray,PH,2020-01-05 22:05:53,15.22,121.41,71.4,89,82,13.96,light rain,0.88,0.0
310,Ust-Koksa,RU,2020-01-05 22:00:54,50.27,85.62,6.21,67,0,3.74,clear sky,0.0,0.0
311,Husavik,CA,2020-01-05 21:57:40,50.56,-96.99,27.0,60,37,10.0,scattered clouds,0.0,0.0
312,Jijiga,ET,2020-01-05 22:04:10,9.35,42.8,62.69,68,0,6.04,clear sky,0.0,0.0
313,Niquelandia,BR,2020-01-05 22:05:54,-14.47,-48.46,73.8,90,47,3.11,light rain,0.81,0.0
314,Iracoubo,GF,2020-01-05 22:01:51,5.48,-53.21,79.74,77,29,12.21,scattered clouds,0.0,0.0
315,Kalaleh,IR,2020-01-05 22:05:54,37.38,55.49,42.8,100,75,2.21,broken clouds,0.0,0.0
316,Ribeira Grande,PT,2020-01-05 21:57:21,38.52,-28.7,64.4,93,40,13.87,scattered clouds,0.0,0.0
317,Pangnirtung,CA,2020-01-05 22:00:34,66.15,-65.72,-29.2,43,75,4.7,broken clouds,0.0,0.0
318,Dunedin,NZ,2020-01-05 22:01:29,-45.87,170.5,54.0,53,39,35.99,light rain,0.56,0.0
319,Anloga,GH,2020-01-05 22:03:43,5.79,0.9,78.8,61,91,2.24,haze,0.0,0.0
320,Camacha,PT,2020-01-05 21:58:54,33.08,-16.33,62.6,72,20,6.93,few clouds,0.0,0.0
321,Sitka,US,2020-01-05 21:58:31,37.17,-99.65,52.0,35,2,8.25,clear sky,0.0,0.0
322,Brae,GB,2020-01-05 22:01:35,60.4,-1.35,50.0,93,100,23.04,light rain,0.0,0.0
323,Shieli,KZ,2020-01-05 22:05:56,44.18,66.74,28.89,95,100,9.13,overcast clouds,0.0,0.0
324,Morondava,MG,2020-01-05 22:02:05,-20.3,44.28,77.32,84,0,3.33,clear sky,0.0,0.0
325,Makakilo City,US,2020-01-05 22:04:07,21.35,-158.09,80.6,78,90,6.93,overcast clouds,0.0,0.0
326,Donghai,CN,2020-01-05 22:05:56,34.52,118.76,44.73,97,100,4.36,overcast clouds,0.0,0.0
327,Shar,NG,2020-01-05 22:05:57,7.3,8.73,79.2,21,100,5.23,overcast clouds,0.0,0.0
328,Cukai,MY,2020-01-05 22:05:57,4.25,103.42,75.2,88,61,2.24,broken clouds,0.0,0.0
329,Saint Anthony,US,2020-01-05 22:05:58,43.97,-111.68,28.4,85,90,6.93,light rain,0.0,0.0
330,Siyabuswa,ZA,2020-01-05 22:05:58,-25.11,29.06,79.32,51,31,4.18,scattered clouds,0.0,0.0
331,Maicao,CO,2020-01-05 22:05:58,11.38,-72.24,84.09,62,45,7.65,light rain,0.63,0.0
332,Labuhan,ID,2020-01-05 22:05:58,-2.54,115.51,72.39,95,100,2.39,moderate rain,3.06,0.0
333,Vista Hermosa,MX,2020-01-05 22:05:59,14.92,-92.27,87.8,66,40,5.82,scattered clouds,0.0,0.0
334,Zhigansk,RU,2020-01-05 22:00:16,66.77,123.37,-10.32,94,100,15.64,overcast clouds,0.0,0.0
335,Srandakan,ID,2020-01-05 22:05:59,-7.94,110.25,74.89,87,15,3.09,light rain,1.44,0.0
336,Comodoro Rivadavia,AR,2020-01-05 22:05:59,-45.87,-67.48,73.4,27,40,19.46,scattered clouds,0.0,0.0
337,Sunland Park,US,2020-01-05 22:06:00,31.8,-106.58,62.01,26,1,1.54,clear sky,0.0,0.0
338,Juybar,IR,2020-01-05 22:06:00,36.64,52.91,48.2,93,90,2.24,light rain,0.0,0.0
339,Turinskaya Sloboda,RU,2020-01-05 22:06:00,57.62,64.39,21.24,92,0,8.88,clear sky,0.0,0.0
340,Falkenberg,DE,2020-01-05 22:06:00,49.86,12.22,35.01,100,75,2.35,broken clouds,0.0,0.0
341,Goderich,CA,2020-01-05 22:06:01,43.74,-81.71,32.0,83,100,8.01,overcast clouds,0.0,0.0
342,Durusu,TR,2020-01-05 22:06:01,37.53,40.83,41.0,100,90,2.24,overcast clouds,0.0,0.0
343,Yar-Sale,RU,2020-01-05 22:06:01,66.83,70.83,15.31,84,0,17.47,clear sky,0.0,0.0
344,Havelock,US,2020-01-05 22:06:01,34.88,-76.9,51.8,40,1,9.17,clear sky,0.0,0.0
345,Sertolovo,RU,2020-01-05 22:06:01,60.14,30.21,24.01,79,100,5.91,overcast clouds,0.0,0.0
346,Les Cayes,HT,2020-01-05 22:03:22,18.19,-73.75,81.93,68,98,5.48,overcast clouds,0.0,0.0
347,Joshimath,IN,2020-01-05 22:06:02,30.57,79.57,26.56,42,56,7.94,broken clouds,0.0,0.0
348,Ylivieska,FI,2020-01-05 22:06:02,64.07,24.53,30.0,91,100,8.01,light snow,0.0,0.5
349,Veinticinco De Mayo,AR,2020-01-05 22:06:03,-27.38,-54.75,91.0,43,60,2.08,broken clouds,0.0,0.0
350,Sayyan,YE,2020-01-05 22:06:03,15.17,44.32,57.15,67,0,1.23,clear sky,0.0,0.0
351,San Policarpo,PH,2020-01-05 22:06:03,12.18,125.51,79.02,85,68,18.54,moderate rain,3.31,0.0
352,Port Hedland,AU,2020-01-05 22:06:03,-20.31,118.58,84.2,70,90,9.17,overcast clouds,0.0,0.0
353,Pueblo Nuevo Vinas,GT,2020-01-05 22:06:04,14.23,-90.47,87.8,49,20,18.34,few clouds,0.0,0.0
354,Chastyye,RU,2020-01-05 22:06:04,57.29,54.97,21.34,95,99,5.91,overcast clouds,0.0,0.0
355,Ust-Tsilma,RU,2020-01-05 21:57:56,65.44,52.15,11.37,92,82,8.01,broken clouds,0.0,0.0
356,Ucluelet,CA,2020-01-05 22:04:23,48.94,-125.55,46.0,60,20,19.69,few clouds,0.0,0.0
357,Finschhafen,PG,2020-01-05 22:06:05,-6.6,147.85,84.15,72,100,8.95,overcast clouds,0.0,0.0
358,Bambanglipuro,ID,2020-01-05 22:06:05,-7.95,110.28,74.89,87,15,3.09,light rain,1.44,0.0
359,Geraldton,CA,2020-01-05 21:58:02,49.72,-86.95,14.0,85,90,8.05,snow,0.0,0.0
360,Guiratinga,BR,2020-01-05 22:06:05,-16.35,-53.76,81.66,66,64,1.19,broken clouds,0.0,0.0
361,Pisco,PE,2020-01-05 21:58:59,-13.71,-76.2,73.0,30,69,24.16,broken clouds,0.0,0.0
362,Kysyl-Syr,RU,2020-01-05 22:06:06,63.9,122.77,-15.34,98,99,6.62,overcast clouds,0.0,0.0
363,Sola,TZ,2020-01-05 22:02:19,-3.17,33.8,66.42,84,89,4.52,overcast clouds,0.0,0.0
364,Tabas,IR,2020-01-05 22:06:06,33.6,56.92,42.8,48,0,2.24,clear sky,0.0,0.0
365,Horsham,AU,2020-01-05 22:06:06,-36.71,142.2,55.49,65,69,9.48,broken clouds,0.0,0.0
366,Ancud,CL,2020-01-05 21:57:58,-41.87,-73.83,57.2,62,75,14.99,broken clouds,0.0,0.0
367,Jinchang,CN,2020-01-05 22:06:07,38.52,102.19,16.32,60,88,3.51,overcast clouds,0.0,0.0
368,Ribas Do Rio Pardo,BR,2020-01-05 22:06:07,-20.45,-53.76,85.57,52,63,6.69,broken clouds,0.0,0.0
369,Kenai,US,2020-01-05 22:02:04,60.55,-151.26,0.0,83,75,8.05,broken clouds,0.0,0.0
370,Langsa,ID,2020-01-05 22:06:07,4.47,97.97,73.62,89,95,3.06,overcast clouds,0.0,0.0
371,Airai,TL,2020-01-05 22:00:24,-8.93,125.41,69.42,84,100,5.26,overcast clouds,0.0,0.0
372,Kununurra,AU,2020-01-05 21:59:17,-15.77,128.74,77.0,94,40,1.12,scattered clouds,0.0,0.0
373,Puerto Del Rosario,ES,2020-01-05 22:06:08,28.5,-13.86,64.4,72,40,13.87,scattered clouds,0.0,0.0
374,Mehamn,NO,2020-01-05 21:57:40,71.03,27.85,28.4,79,20,9.17,few clouds,0.0,0.0
375,Kaeo,NZ,2020-01-05 22:03:42,-35.1,173.78,66.99,100,100,1.99,light rain,0.19,0.0
376,Pangkalanbuun,ID,2020-01-05 22:06:09,-2.68,111.62,74.75,97,100,1.83,overcast clouds,0.0,0.0
377,Amambai,BR,2020-01-05 22:06:09,-23.11,-55.23,84.83,65,40,1.63,light rain,0.31,0.0
378,Churachandpur,IN,2020-01-05 22:06:09,24.33,93.67,47.98,99,40,1.7,scattered clouds,0.0,0.0
379,Uvat,RU,2020-01-05 22:06:09,59.14,68.9,19.26,95,98,9.26,overcast clouds,0.0,0.0
380,Lensk,RU,2020-01-05 22:06:10,60.71,114.91,12.16,92,100,14.16,light snow,0.0,0.69
381,Haines Junction,CA,2020-01-05 22:04:24,60.75,-137.51,-11.18,90,1,3.36,clear sky,0.0,0.0
382,Kyzyl-Suu,KG,2020-01-05 22:06:10,42.34,78.0,18.03,49,78,9.35,broken clouds,0.0,0.0
383,Baykit,RU,2020-01-05 22:01:54,61.68,96.39,9.34,96,100,4.05,overcast clouds,0.0,0.0
384,Auki,NG,2020-01-05 22:06:10,12.18,6.51,68.32,27,64,12.48,broken clouds,0.0,0.0
385,Bereda,ES,2020-01-05 22:04:16,43.27,-7.54,43.0,100,1,4.7,fog,0.0,0.0
386,Karratha,AU,2020-01-05 22:00:34,-20.74,116.85,84.25,69,100,10.11,moderate rain,3.25,0.0
387,Troitskoye,RU,2020-01-05 21:58:45,52.98,84.68,12.52,89,30,5.5,scattered clouds,0.0,0.0
388,Havre-Saint-Pierre,CA,2020-01-05 22:06:11,50.23,-63.6,15.8,66,1,11.41,clear sky,0.0,0.0
389,Corowa,AU,2020-01-05 22:06:11,-36.0,146.39,63.0,77,90,2.93,overcast clouds,0.0,0.0
390,Salamiyah,SY,2020-01-05 22:06:12,35.01,37.05,48.45,76,86,1.74,overcast clouds,0.0,0.0
391,Vila Franca Do Campo,PT,2020-01-05 22:03:52,37.72,-25.43,64.4,93,40,17.22,scattered clouds,0.0,0.0
392,Popondetta,PG,2020-01-05 22:06:12,-8.77,148.24,67.39,92,100,3.89,moderate rain,4.63,0.0
393,Buraydah,SA,2020-01-05 21:58:26,26.33,43.97,50.0,53,0,2.24,clear sky,0.0,0.0
394,Devonport,AU,2020-01-05 22:03:07,-41.18,146.36,63.0,65,0,1.01,clear sky,0.0,0.0
395,Beipiao,CN,2020-01-05 22:06:13,41.8,120.76,21.92,92,100,5.46,overcast clouds,0.0,0.0
396,Amahai,ID,2020-01-05 22:02:05,-3.31,129.0,84.99,83,100,15.12,overcast clouds,0.0,0.0
397,Ialibu,PG,2020-01-05 22:06:13,-6.28,143.99,60.98,97,100,2.95,light rain,1.75,0.0
398,Bandarbeyla,SO,2020-01-05 21:57:46,9.49,50.81,78.48,81,100,10.02,overcast clouds,0.0,0.0
399,Palmer,AU,2020-01-05 22:06:14,-34.85,139.16,68.0,51,1,5.82,clear sky,0.0,0.0
400,Roxas,PH,2020-01-05 22:06:14,10.32,119.34,76.93,86,60,9.35,light rain,1.13,0.0
401,Sadao,TH,2020-01-05 22:06:14,6.63,100.42,73.4,94,20,3.36,few clouds,0.0,0.0
402,Hofn,IS,2020-01-05 22:02:23,64.25,-15.21,43.52,74,100,12.55,overcast clouds,0.0,0.0
403,Pasighat,IN,2020-01-05 22:06:14,28.06,95.33,53.76,87,81,3.22,light rain,0.31,0.0
404,Nicoya,CR,2020-01-05 22:06:15,10.15,-85.45,89.6,52,40,16.11,scattered clouds,0.0,0.0
405,Edremit,TR,2020-01-05 22:06:15,38.43,43.26,21.2,79,40,5.82,scattered clouds,0.0,0.0
406,Arroyo,BO,2020-01-05 22:06:16,-11.08,-66.08,87.8,66,75,11.41,broken clouds,0.0,0.0
407,Kidal,ML,2020-01-05 22:06:16,18.44,1.41,57.9,21,0,10.63,clear sky,0.0,0.0
408,Dingle,PH,2020-01-05 22:03:30,11.0,122.67,72.93,95,63,10.02,light rain,2.0,0.0
409,Pacific Grove,US,2020-01-05 22:06:16,36.62,-121.92,61.0,51,1,9.44,clear sky,0.0,0.0
410,Taksimo,RU,2020-01-05 22:04:07,56.36,114.84,-8.28,93,18,1.86,few clouds,0.0,0.0
411,Xiamen,CN,2020-01-05 22:06:17,24.46,118.07,60.8,93,66,2.24,mist,0.0,0.0
412,Tuatapere,NZ,2020-01-05 22:01:55,-46.13,167.69,53.01,71,100,25.99,light rain,2.13,0.0
413,Karaton,ID,2020-01-05 22:06:18,-6.34,106.1,78.8,88,75,14.99,thunderstorm with light rain,0.0,0.0
414,Qandala,SO,2020-01-05 22:06:18,11.47,49.87,76.03,71,13,1.21,few clouds,0.0,0.0
415,Beloha,MG,2020-01-05 22:02:32,-25.17,45.06,73.9,79,0,14.29,clear sky,0.0,0.0
416,Lexington Park,US,2020-01-05 22:06:18,38.26,-76.45,44.01,48,1,10.29,clear sky,0.0,0.0
417,Bima,ID,2020-01-05 22:06:18,-8.45,118.73,72.16,96,75,0.4,broken clouds,0.0,0.0
418,Knysna,ZA,2020-01-05 22:06:19,-34.04,23.05,66.2,93,100,3.36,light rain,0.69,0.0
419,Linxia,CN,2020-01-05 22:06:19,35.6,103.21,20.34,75,100,1.1,overcast clouds,0.0,0.0
420,Basse,DE,2020-01-05 22:06:19,52.55,9.51,44.01,75,75,8.05,broken clouds,0.0,0.0
421,Kudahuvadhoo,MV,2020-01-05 22:03:51,2.67,72.89,82.2,79,96,13.8,overcast clouds,0.0,0.0
422,El Alto,BO,2020-01-05 22:06:19,-16.5,-68.19,53.6,71,75,11.41,thunderstorm with light rain,0.0,0.0
423,Okha,RU,2020-01-05 22:06:20,53.59,142.95,24.75,89,100,15.82,light snow,0.0,0.13
424,Vao,EE,2020-01-05 21:57:33,59.1,26.19,27.45,61,100,8.25,overcast clouds,0.0,0.0
425,Luderitz,NA,2020-01-05 22:00:25,-26.65,15.16,63.55,85,0,24.99,clear sky,0.0,0.0
426,Ulladulla,AU,2020-01-05 22:06:20,-35.36,150.48,64.99,93,96,5.82,light rain,0.5,0.0
427,Broome,GB,2020-01-05 22:02:30,52.47,1.45,46.4,81,75,9.17,broken clouds,0.0,0.0
428,Kutum,SD,2020-01-05 22:04:04,14.2,24.66,55.96,26,0,6.17,clear sky,0.0,0.0
429,Maningrida,AU,2020-01-05 22:06:21,-12.05,134.23,78.26,88,100,4.23,overcast clouds,0.0,0.0
430,Tiarei,PF,2020-01-05 22:06:21,-17.53,-149.33,84.2,74,40,5.82,scattered clouds,0.0,0.0
431,Lasa,CY,2020-01-05 22:00:21,34.92,32.53,55.4,82,75,8.05,light intensity shower rain,0.0,0.0
432,Weyburn,CA,2020-01-05 22:06:22,49.67,-103.85,30.0,72,0,13.0,clear sky,0.0,0.0
433,Kattivakkam,IN,2020-01-05 22:06:22,13.22,80.32,77.0,88,40,6.93,mist,0.0,0.0
434,Aksarka,RU,2020-01-05 22:01:23,66.56,67.8,15.76,85,0,17.25,clear sky,0.0,0.0
435,Kodiak,US,2020-01-05 22:00:18,39.95,-94.76,51.8,36,1,13.87,clear sky,0.0,0.0
436,Lardos,GR,2020-01-05 22:06:23,36.09,28.02,57.2,76,40,2.24,scattered clouds,0.0,0.0
437,San Quintin,PH,2020-01-05 22:00:22,17.54,120.52,67.23,81,39,6.53,scattered clouds,0.0,0.0
438,Mamakan,RU,2020-01-05 22:06:23,57.82,114.02,2.43,89,93,2.24,overcast clouds,0.0,0.0
439,Snasa,NO,2020-01-05 22:06:24,64.25,12.38,33.8,100,75,3.36,light rain,0.0,0.0
440,Teknaf,BD,2020-01-05 22:06:24,20.86,92.31,58.46,98,18,3.42,few clouds,0.0,0.0
441,Liwale,TZ,2020-01-05 22:02:12,-9.8,37.92,71.85,83,100,2.89,overcast clouds,0.0,0.0
442,Moyale,ET,2020-01-05 22:06:24,3.52,39.05,74.89,50,48,1.83,scattered clouds,0.0,0.0
443,Dayong,CN,2020-01-05 22:06:24,25.02,118.29,60.8,93,68,2.24,mist,0.0,0.0
444,Eyl,SO,2020-01-05 22:06:25,7.98,49.82,78.37,84,49,12.3,scattered clouds,0.0,0.0
445,Maralal,KE,2020-01-05 22:06:25,1.1,36.7,65.41,74,100,9.06,overcast clouds,0.0,0.0
446,Kosikha,RU,2020-01-05 22:06:25,53.36,84.58,12.2,85,0,6.71,clear sky,0.0,0.0
447,Tommot,RU,2020-01-05 22:06:25,58.97,126.27,12.74,95,100,3.6,light snow,0.0,0.44
448,Petrykiv,UA,2020-01-05 22:06:26,49.53,25.58,33.01,83,95,13.0,light snow,0.0,0.13
449,Chingirlau,KZ,2020-01-05 22:06:26,51.09,54.08,27.54,92,100,10.45,overcast clouds,0.0,0.0
450,Kosh-Agach,RU,2020-01-05 22:06:26,49.99,88.66,-13.4,96,0,0.81,clear sky,0.0,0.0
451,Puerto Ayacucho,CO,2020-01-05 22:06:26,5.66,-67.63,91.4,46,0,10.29,clear sky,0.0,0.0
452,Ostrovnoy,RU,2020-01-05 22:00:32,68.05,39.51,14.47,92,68,20.92,broken clouds,0.0,0.0
453,Iqaluit,CA,2020-01-05 22:00:33,63.75,-68.52,-20.2,61,90,2.24,light snow,0.0,0.0
454,Solnechnyy,RU,2020-01-05 22:03:59,50.72,136.64,-2.0,86,0,2.57,clear sky,0.0,0.0
455,Opuwo,NA,2020-01-05 22:06:27,-18.06,13.84,68.99,70,97,8.95,overcast clouds,0.0,0.0
456,Kirakira,SB,2020-01-05 22:00:14,-10.46,161.92,80.55,85,100,7.85,overcast clouds,0.0,0.0
457,Dukhovshchina,RU,2020-01-05 22:06:28,55.19,32.41,27.19,83,94,6.55,overcast clouds,0.0,0.0
458,Belmonte,PT,2020-01-05 22:01:53,40.36,-7.35,41.0,23,0,7.0,clear sky,0.0,0.0
459,Jiexiu,CN,2020-01-05 22:06:28,37.02,111.92,23.81,96,81,1.32,broken clouds,0.0,0.0
460,Ilinskiy,RU,2020-01-05 22:06:29,55.62,38.12,33.8,64,75,6.71,broken clouds,0.0,0.0
461,Erzin,TR,2020-01-05 22:02:09,36.95,36.2,45.0,100,93,10.29,overcast clouds,0.0,0.0
462,Manyana,AU,2020-01-05 22:06:29,-35.26,150.51,70.0,93,96,5.82,light rain,0.5,0.0
463,Colesberg,ZA,2020-01-05 22:06:29,-30.72,25.1,71.62,57,0,7.14,clear sky,0.0,0.0
464,Wonthaggi,AU,2020-01-05 22:06:30,-38.6,145.59,57.0,96,100,6.53,light rain,1.0,0.0
465,Mahebourg,MU,2020-01-05 22:01:30,-20.41,57.7,73.4,100,75,9.17,heavy intensity rain,0.0,0.0
466,Namie,JP,2020-01-05 22:06:30,37.52,140.86,33.01,68,40,2.24,scattered clouds,0.0,0.0
467,Jutai,BR,2020-01-05 22:06:30,-1.71,-47.89,76.71,94,62,3.71,light rain,1.56,0.0
468,Santa Flavia,CL,2020-01-05 22:06:31,-51.55,-72.35,53.6,50,75,14.99,broken clouds,0.0,0.0
469,Vanavara,RU,2020-01-05 22:06:31,60.35,102.28,11.68,94,100,8.68,light snow,0.0,0.13
470,Beringovskiy,RU,2020-01-05 21:57:51,63.05,179.32,-7.46,79,89,16.67,overcast clouds,0.0,0.0
471,Saucillo,MX,2020-01-05 22:06:31,28.03,-105.29,67.32,15,0,6.15,clear sky,0.0,0.0
472,Hay River,CA,2020-01-05 22:06:32,60.82,-115.79,-16.6,75,75,4.7,broken clouds,0.0,0.0
473,Jatai,IN,2020-01-05 22:06:32,28.97,76.18,55.08,55,100,3.44,overcast clouds,0.0,0.0
474,Claremore,US,2020-01-05 22:06:32,36.31,-95.62,61.0,14,1,9.17,clear sky,0.0,0.0
475,Dalvik,SE,2020-01-05 22:06:33,57.79,14.13,41.0,93,100,18.34,mist,0.0,0.0
476,Balabac,PH,2020-01-05 22:06:33,7.99,117.06,79.77,82,86,16.17,overcast clouds,0.0,0.0
477,Novosokolniki,RU,2020-01-05 22:06:33,56.35,30.15,26.8,87,81,4.29,broken clouds,0.0,0.0
478,Praia Da Vitoria,PT,2020-01-05 22:02:33,38.73,-27.07,64.4,88,75,23.11,broken clouds,0.0,0.0
479,Nogliki,RU,2020-01-05 22:06:34,51.8,143.14,24.62,96,100,13.29,light snow,0.0,1.0
480,Samarai,PG,2020-01-05 21:57:14,-10.62,150.67,79.39,85,100,2.68,overcast clouds,0.0,0.0
481,Burgeo,CA,2020-01-05 22:06:34,47.61,-57.61,31.05,86,100,28.81,snow,0.0,1.75
482,Gonbad-E Qabus,IR,2020-01-05 22:06:34,37.25,55.17,42.8,100,75,1.92,broken clouds,0.0,0.0
483,Hambantota,LK,2020-01-05 22:01:15,6.12,81.12,75.2,100,13,5.82,few clouds,0.0,0.0
484,Piacabucu,BR,2020-01-05 22:03:17,-10.41,-36.43,79.27,77,100,9.64,overcast clouds,0.0,0.0
485,Lorengau,PG,2020-01-05 21:58:24,-2.02,147.27,84.42,72,94,9.64,light rain,2.25,0.0
486,Tautira,PF,2020-01-05 21:57:26,-17.73,-149.15,84.2,74,40,5.82,scattered clouds,0.0,0.0
487,Paris,FR,2020-01-05 22:06:36,48.86,2.35,45.0,65,90,4.7,overcast clouds,0.0,0.0
488,Wyndham,GB,2020-01-05 22:06:36,51.61,-3.54,46.99,87,90,8.05,overcast clouds,0.0,0.0
489,Huilong,CN,2020-01-05 22:03:03,31.15,106.5,48.61,81,98,1.7,overcast clouds,0.0,0.0
490,Zastavna,UA,2020-01-05 22:06:36,48.52,25.85,33.01,83,98,13.0,overcast clouds,0.0,0.0
491,Tatui,BR,2020-01-05 22:06:37,-23.36,-47.86,78.01,89,35,4.0,light rain,2.38,0.0
492,Prainha,BR,2020-01-05 22:06:37,-1.8,-53.48,88.47,53,62,2.89,broken clouds,0.0,0.0
493,Mount Gambier,AU,2020-01-05 22:04:02,-37.83,140.78,55.4,76,9,8.05,clear sky,0.0,0.0
494,Shakawe,BW,2020-01-05 22:02:08,-18.36,21.84,68.76,87,100,5.26,light rain,1.56,0.0
495,Ferrol,ES,2020-01-05 22:02:35,43.48,-8.23,43.0,100,0,4.7,fog,0.0,0.0
496,Syke,DE,2020-01-05 22:06:38,52.91,8.82,43.0,81,75,9.17,light intensity drizzle,0.0,0.0
497,Port Huron,US,2020-01-05 22:06:00,42.98,-82.44,32.0,86,90,14.99,light snow,0.0,0.0
498,Adeje,NG,2020-01-05 22:06:39,5.68,5.76,77.67,58,94,4.29,overcast clouds,0.0,0.0
499,Borogontsy,RU,2020-01-05 22:06:39,62.67,131.17,-5.8,98,100,4.56,light snow,0.0,0.25
500,Gornyy,RU,2020-01-05 22:06:39,51.76,48.54,30.25,96,97,8.57,light snow,0.0,0.13
501,Kurumkan,RU,2020-01-05 22:01:22,54.33,110.32,-0.53,86,3,2.28,clear sky,0.0,0.0
502,Rudnaya Pristan,RU,2020-01-05 22:06:40,44.36,135.82,11.03,77,0,7.78,clear sky,0.0,0.0
503,Santa Rosa,AR,2020-01-05 22:02:27,-36.62,-64.29,88.9,10,67,16.62,broken clouds,0.0,0.0
504,Ishigaki,JP,2020-01-05 22:01:48,24.34,124.16,69.8,77,40,13.87,scattered clouds,0.0,0.0
505,Cavalcante,BR,2020-01-05 22:06:40,-13.79,-47.46,68.2,87,94,4.52,light rain,0.31,0.0
506,Saint-Joseph,FR,2020-01-05 22:03:58,43.56,6.97,48.2,93,0,4.7,clear sky,0.0,0.0
507,Kanelovskaya,RU,2020-01-05 22:06:41,46.59,39.19,39.16,84,100,2.91,light rain,0.5,0.0
508,Huruta,ET,2020-01-05 22:06:41,8.15,39.35,48.83,83,0,2.77,clear sky,0.0,0.0
509,Rincon,PA,2020-01-05 22:06:41,8.46,-82.28,93.2,34,86,21.92,overcast clouds,0.0,0.0
510,Nome,US,2020-01-05 22:01:06,30.04,-94.42,73.99,43,1,8.05,clear sky,0.0,0.0
511,Oslo,NO,2020-01-05 22:01:50,59.91,10.74,41.0,96,100,6.93,overcast clouds,0.0,0.0
512,Berberati,CF,2020-01-05 22:06:42,4.26,15.79,70.11,32,0,1.43,clear sky,0.0,0.0
513,Marzuq,YE,2020-01-05 22:02:13,14.4,46.47,63.23,71,0,3.06,clear sky,0.0,0.0
514,Alexandria,RO,2020-01-05 22:03:31,43.97,25.33,30.99,87,66,4.97,broken clouds,0.0,0.0
515,Ventspils,LV,2020-01-05 22:06:43,57.39,21.56,39.2,67,100,17.22,overcast clouds,0.0,0.0
516,Pionerskiy,RU,2020-01-05 22:06:43,61.2,62.86,17.83,92,100,5.95,overcast clouds,0.0,0.0
517,Teguise,ES,2020-01-05 22:06:43,29.06,-13.56,60.8,72,20,6.93,few clouds,0.0,0.0
518,Salisbury,GB,2020-01-05 22:06:44,51.07,-1.8,48.0,87,100,8.05,overcast clouds,0.0,0.0
519,Ciuperceni,RO,2020-01-05 22:06:44,44.94,23.01,31.08,61,0,2.35,clear sky,0.0,0.0
520,Meulaboh,ID,2020-01-05 22:02:13,4.14,96.13,80.4,81,0,6.78,clear sky,0.0,0.0
521,Mulanje,MW,2020-01-05 22:06:44,-16.03,35.5,69.94,84,99,0.31,overcast clouds,0.0,0.0
522,Linqiong,CN,2020-01-05 22:06:45,30.42,103.46,51.01,100,40,2.24,mist,0.0,0.0
523,Nanchang,CN,2020-01-05 22:06:45,28.68,115.89,56.39,94,55,2.75,broken clouds,0.0,0.0
524,Montrose,GB,2020-01-05 22:06:45,56.71,-2.47,51.8,87,75,18.34,broken clouds,0.0,0.0
525,Jalu,LY,2020-01-05 22:06:45,29.03,21.55,50.79,48,0,12.62,clear sky,0.0,0.0
526,Ingham,AU,2020-01-05 22:06:46,-18.65,146.16,73.81,88,17,0.87,few clouds,0.0,0.0
527,Loreto,PY,2020-01-05 22:06:46,-23.27,-57.32,98.62,23,68,6.78,broken clouds,0.0,0.0
528,Vyartsilya,RU,2020-01-05 22:06:46,62.18,30.69,22.3,78,100,6.24,overcast clouds,0.0,0.0
529,Hobro,DK,2020-01-05 22:06:46,56.64,9.79,45.0,87,100,13.87,overcast clouds,0.0,0.0
530,Ilhabela,BR,2020-01-05 22:06:47,-23.78,-45.36,76.41,83,68,4.45,broken clouds,0.0,0.0
531,Ende,ID,2020-01-05 22:06:47,-8.84,121.65,81.61,80,98,7.14,overcast clouds,0.0,0.0
532,Constitucion,MX,2020-01-05 22:00:41,23.99,-104.67,66.99,12,5,2.24,clear sky,0.0,0.0
533,Kahului,US,2020-01-05 22:01:49,20.89,-156.47,82.4,51,20,20.8,few clouds,0.0,0.0
534,Rocha,UY,2020-01-05 21:59:26,-34.48,-54.34,78.91,49,68,13.96,broken clouds,0.0,0.0
535,Nemuro,JP,2020-01-05 21:57:51,43.32,145.57,26.94,66,49,25.9,scattered clouds,0.0,0.0
536,Flinders,AU,2020-01-05 22:06:48,-34.58,150.85,71.01,93,100,5.82,light rain,0.38,0.0
537,Flin Flon,CA,2020-01-05 22:06:48,54.77,-101.88,8.6,78,40,8.05,scattered clouds,0.0,0.0
538,Mayo,CA,2020-01-05 22:05:25,63.59,-135.9,-23.8,67,90,3.18,light snow,0.0,0.0
539,Abu Kamal,SY,2020-01-05 22:06:49,34.45,40.92,50.81,67,67,4.34,broken clouds,0.0,0.0
540,Shangzhi,CN,2020-01-05 22:06:49,45.21,127.96,10.42,86,100,3.06,overcast clouds,0.0,0.0
541,Tullahoma,US,2020-01-05 22:06:49,35.36,-86.21,54.0,65,1,10.29,clear sky,0.0,0.0
542,Bullhead City,US,2020-01-05 22:06:50,35.15,-114.57,64.99,33,75,19.46,broken clouds,0.0,0.0
543,Prince George,CA,2020-01-05 22:06:50,53.92,-122.75,33.01,80,90,11.41,overcast clouds,0.0,0.0
544,Dongsheng,CN,2020-01-05 22:06:50,29.72,112.52,47.39,93,100,7.16,overcast clouds,0.0,0.0
545,Tha Bo,TH,2020-01-05 22:06:50,17.85,102.58,66.2,81,0,1.1,clear sky,0.0,0.0
546,Kirkenaer,NO,2020-01-05 22:06:50,60.46,12.06,41.0,91,89,2.24,overcast clouds,0.0,0.0
547,Natal,BR,2020-01-05 21:57:33,-5.81,-35.21,82.4,74,40,12.75,scattered clouds,0.0,0.0
548,Vicksburg,US,2020-01-05 22:06:51,32.35,-90.88,66.2,39,1,8.05,clear sky,0.0,0.0
549,Kasongo,CD,2020-01-05 22:06:51,-4.43,26.67,69.91,98,100,2.48,moderate rain,3.25,0.0
550,Brigantine,US,2020-01-05 22:02:25,39.41,-74.36,42.01,48,20,9.17,few clouds,0.0,0.0
551,Xining,CN,2020-01-05 22:06:51,36.62,101.77,18.41,59,100,3.18,overcast clouds,0.0,0.0
552,Kota Kinabalu,MY,2020-01-05 22:06:52,5.98,116.07,77.0,83,75,3.36,broken clouds,0.0,0.0
553,Milazzo,IT,2020-01-05 22:06:52,38.22,15.24,51.01,27,20,16.11,few clouds,0.0,0.0
554,Mandalgovi,MN,2020-01-05 21:58:56,45.76,106.27,4.14,94,0,10.56,clear sky,0.0,0.0
555,Jinan,CN,2020-01-05 22:06:52,36.65,117.11,37.99,94,100,2.98,light rain,0.13,0.0
556,Akdepe,TM,2020-01-05 22:06:53,42.05,59.39,26.6,73,90,6.93,overcast clouds,0.0,0.0
557,Tyup,KG,2020-01-05 22:06:53,42.73,78.36,12.83,41,66,7.94,broken clouds,0.0,0.0
558,Antigonish,CA,2020-01-05 22:06:53,45.62,-61.99,28.99,86,90,14.99,light snow,0.0,0.0
559,Santana,BR,2020-01-05 22:06:53,-0.06,-51.18,78.8,100,75,5.82,broken clouds,0.0,0.0
